{
   "type": "FeatureCollection",
   "features": [
  {
    "type": "Feature",
    "geometry": {
       "type": "Point",
       "coordinates":  [ 2.178747,41.379643 ]
    },
    "properties": {
    "Promoción":"Serra 18",
    "Localización":"Carrer Serra 18 Gòtic",
    "precio":"599.000 €",
    "preciook":"599000",
    "Anunciante":"Barcelona Property Investments",
    "Viviendas":"13",
    "Returnedaddress":"Carrer d'en Serra, 18, 08002 Barcelona, Espanya"
    }
  },
  {
    "type": "Feature",
    "geometry": {
       "type": "Point",
       "coordinates":  [ 2.141995,41.400377 ]
    },
    "properties": {
    "Promoción":"Plató 20",
    "Localización":"Carrer Plato 20",
    "precio":"551.000 €",
    "preciook":"551000",
    "Anunciante":"Amat Barcelona - Obra Nova",
    "Viviendas":"23",
    "Returnedaddress":"Carrer de Plató, 20, 08006 Barcelona, Espanya"
    }
  },
  {
    "type": "Feature",
    "geometry": {
       "type": "Point",
       "coordinates":  [ 2.223744,41.416073 ]
    },
    "properties": {
    "Promoción":"Mar Diagonal",
    "Localización":"Avinguda Eduard Maristany 7 Besos-Maresme",
    "precio":"345.900 €",
    "preciook":"345900",
    "Anunciante":"Cornex Capital",
    "Viviendas":"143",
    "Returnedaddress":"Av. d'Eduard Maristany, 7, 08019 Sant Adrià de Besòs, Barcelona, Espanya"
    }
  },
  {
    "type": "Feature",
    "geometry": {
       "type": "Point",
       "coordinates":  [ 2.138968,41.36761 ]
    },
    "properties": {
    "Promoción":"Magoria Residencial",
    "Localización":"Gran Via Corts Catalanes 181, La Bordeta",
    "precio":"389.000 €",
    "preciook":"389000",
    "Anunciante":"Cornex Capital",
    "Viviendas":"35",
    "Returnedaddress":"Gran Via de les Corts Catalanes, 181, 08014 Barcelona, Espanya"
    }
  },
  {
    "type": "Feature",
    "geometry": {
       "type": "Point",
       "coordinates":  [ 2.130758,41.400676 ]
    },
    "properties": {
    "Promoción":"Escoles Pies - ONEP",
    "Localización":"Carrer Escoles Pies",
    "precio":"600.000 €",
    "preciook":"600000",
    "Anunciante":"Vivendex",
    "Viviendas":"?",
    "Returnedaddress":"Carrer de les Escoles Pies, 08017 Barcelona, Espanya"
    }
  },
  {
    "type": "Feature",
    "geometry": {
       "type": "Point",
       "coordinates":  [ 2.132844,41.3612937 ]
    },
    "properties": {
    "Promoción":"Torres Cerdà",
    "Localización":"Carretera Prat 20 La Marina-Montjuic",
    "precio":"356.000 €",
    "preciook":"356000",
    "Anunciante":"La Llave de Oro",
    "Viviendas":"?",
    "Returnedaddress":"Ctra. del Prat, 20, 08038 Barcelona"
    }
  },
  {
    "type": "Feature",
    "geometry": {
       "type": "Point",
       "coordinates":  [ 2.151963,41.386861 ]
    },
    "properties": {
    "Promoción":"Urgell - ONUR",
    "Localización":"Carrer Compte d'Urgell, Esquerra Baixa Eixample",
    "precio":"473.000 €",
    "preciook":"473000",
    "Anunciante":"Vivendex",
    "Viviendas":"?",
    "Returnedaddress":"Carrer del Comte d'Urgell, 145, 08036 Barcelona, Espanya"
    }
  },
  {
    "type": "Feature",
    "geometry": {
       "type": "Point",
       "coordinates":  [ 2.11079,41.376059 ]
    },
    "properties": {
    "Promoción":"Torre Melina Parc",
    "Localización":"Carrer Collblanc 160 Sant Ramon-Maternitat",
    "precio":"390.000 €",
    "preciook":"390000",
    "Anunciante":"Volumetric",
    "Viviendas":"?",
    "Returnedaddress":"Carretera de Collblanc, 160, 08028 Barcelona, Espanya"
    }
  },
  {
    "type": "Feature",
    "geometry": {
       "type": "Point",
       "coordinates":  [ 2.141122,41.369416 ]
    },
    "properties": {
    "Promoción":"Gran Vía Terraces",
    "Localización":"Gran Via Les Corts Catalanes 201 La Bordeta",
    "precio":"782.000 €",
    "preciook":"782000",
    "Anunciante":"Premier España ",
    "Viviendas":"?",
    "Returnedaddress":"Gran Via de les Corts Catalanes, 201, 08014 Barcelona, Espanya"
    }
  },
  {
    "type": "Feature",
    "geometry": {
       "type": "Point",
       "coordinates":  [ 2.15957,41.413162 ]
    },
    "properties": {
    "Promoción":"Mare de Déu de la Salut 83",
    "Localización":"Carrer Mare de Deu de la salut 83",
    "precio":"625.000 €",
    "preciook":"625000",
    "Anunciante":"Cornex Capital",
    "Viviendas":"?",
    "Returnedaddress":"Carrer de la Mare de Déu de la Salut, 83, 08024 Barcelona, Espanya"
    }
  },
  {
    "type": "Feature",
    "geometry": {
       "type": "Point",
       "coordinates":  [ 2.187551,41.440009 ]
    },
    "properties": {
    "Promoción":"Arquimedes 33",
    "Localización":"Carrer Arquimedes 31-33 Sant Andreu",
    "precio":"312.000 €",
    "preciook":"312000",
    "Anunciante":"i-now",
    "Viviendas":"?",
    "Returnedaddress":"Carrer d'Arquímedes, 31, 08030 Barcelona, Espanya"
    }
  },
  {
    "type": "Feature",
    "geometry": {
       "type": "Point",
       "coordinates":  [ 2.165156,41.377948 ]
    },
    "properties": {
    "Promoción":"Cera 53-55",
    "Localización":"Carrer Cera 53 Raval ",
    "precio":"318.000 €",
    "preciook":"318000",
    "Anunciante":"Cera 53-55",
    "Viviendas":"?",
    "Returnedaddress":"Carrer de la Cera, 53, 08001 Barcelona, Espanya"
    }
  },
  {
    "type": "Feature",
    "geometry": {
       "type": "Point",
       "coordinates":  [ 2.1440517,41.397489 ]
    },
    "properties": {
    "Promoción":"Muntaner 307",
    "Localización":"Carrer Muntaner 307 Sant Gervasi-Galvany",
    "precio":"1.290.000 €",
    "preciook":"1290000",
    "Anunciante":"Coldwell Banker Prestige Barcelona",
    "Viviendas":"29",
    "Returnedaddress":"Carrer de Muntaner, 307, 08021 Barcelona, Espanya"
    }
  },
  {
    "type": "Feature",
    "geometry": {
       "type": "Point",
       "coordinates":  [ 2.223744,41.416073 ]
    },
    "properties": {
    "Promoción":"Residencial Célere Diagonal Mar",
    "Localización":"Avinguda Eduard Maristany  7 Besos-Maresme",
    "precio":"345.900 €",
    "preciook":"345900",
    "Anunciante":"Vía Célere",
    "Viviendas":"143",
    "Returnedaddress":"Av. d'Eduard Maristany, 7, 08019 Sant Adrià de Besòs, Barcelona, Espanya"
    }
  },
  {
    "type": "Feature",
    "geometry": {
       "type": "Point",
       "coordinates":  [ 2.186081,41.408235 ]
    },
    "properties": {
    "Promoción":"Residencial Aragón",
    "Localización":"Carrer Aragó 597 Sant Martí",
    "precio":"492.000 €",
    "preciook":"492000",
    "Anunciante":"Cornex Capital",
    "Viviendas":"14",
    "Returnedaddress":"Carrer d'Aragó, 597, 08026 Barcelona, Espanya"
    }
  },
  {
    "type": "Feature",
    "geometry": {
       "type": "Point",
       "coordinates":  [ 2.170111,41.395898 ]
    },
    "properties": {
    "Promoción":"Alt Standing Esquina Girona-Aragó",
    "Localización":"Carrer Aragó 334 Dreta Eixample ",
    "precio":"500.000 €",
    "preciook":"500000",
    "Anunciante":"IMSA",
    "Viviendas":"2",
    "Returnedaddress":"Carrer d'Aragó, 334, 08009 Barcelona, Espanya"
    }
  },
  {
    "type": "Feature",
    "geometry": {
       "type": "Point",
       "coordinates":  [ 2.181179,41.382259 ]
    },
    "properties": {
    "Promoción":"Via Laietana 4",
    "Localización":"Via Laietana 4",
    "precio":"850.000 €",
    "preciook":"850000",
    "Anunciante":"Amat Barcelona - Obra Nova",
    "Viviendas":"16",
    "Returnedaddress":"Via Laietana, 4, 08003 Barcelona, Espanya"
    }
  },
  {
    "type": "Feature",
    "geometry": {
       "type": "Point",
       "coordinates":  [ 2.163678,41.379916 ]
    },
    "properties": {
    "Promoción":"Ronda Sant Antoni-Princep de Viana",
    "Localización":"Carrer Princep de Viana 21 Raval",
    "precio":"345.000 €",
    "preciook":"345000",
    "Anunciante":"i-now",
    "Viviendas":"18",
    "Returnedaddress":"Carrer del Príncep de Viana, 21, 08001 Barcelona, Espanya"
    }
  },
  {
    "type": "Feature",
    "geometry": {
       "type": "Point",
       "coordinates":  [ 2.176387,41.420138 ]
    },
    "properties": {
    "Promoción":"Edificio Art 56b",
    "Localización":"Carrer Art 56, Guinardó",
    "precio":"310.000 €",
    "preciook":"310000",
    "Anunciante":"Inmoglaciar",
    "Viviendas":"?",
    "Returnedaddress":"Carrer de l'Art, 56, 08041 Barcelona, Espanya"
    }
  },
  {
    "type": "Feature",
    "geometry": {
       "type": "Point",
       "coordinates":  [ 2.181532,41.408062 ]
    },
    "properties": {
    "Promoción":"Mallorca",
    "Localización":"Carrer Mallorca 511 Sagrada Família ",
    "precio":"309.000 €",
    "preciook":"309000",
    "Anunciante":"La Llave de Oro",
    "Viviendas":"?",
    "Returnedaddress":"Carrer de Mallorca, 511, 08026 Barcelona, Espanya"
    }
  },
  {
    "type": "Feature",
    "geometry": {
       "type": "Point",
       "coordinates":  [ 2.171819,41.409439 ]
    },
    "properties": {
    "Promoción":"Edificio Claret",
    "Localización":"Carrer Sant Antonia Maria Claret 131",
    "precio":"453.130 €",
    "preciook":"453130",
    "Anunciante":"Century 21 ALPHA",
    "Viviendas":"?",
    "Returnedaddress":"Carrer de Sant Antoni Maria Claret, 131, 08025 Barcelona, Espanya"
    }
  },
  {
    "type": "Feature",
    "geometry": {
       "type": "Point",
       "coordinates":  [ 2.160927,41.431407 ]
    },
    "properties": {
    "Promoción":"Residencial Chapi",
    "Localización":"Carrer Chapi 46, Horta",
    "precio":"314.000 €",
    "preciook":"314000",
    "Anunciante":"i-now",
    "Viviendas":"18",
    "Returnedaddress":"Carrer de Chapí, 46, 08031 Barcelona, Espanya"
    }
  },
  {
    "type": "Feature",
    "geometry": {
       "type": "Point",
       "coordinates":  [ 2.135054,41.374473 ]
    },
    "properties": {
    "Promoción":"Sants:C/Antoni Company 76",
    "Localización":"Carrer Antoni Company 76 Sants",
    "precio":"435.000 €",
    "preciook":"435000",
    "Anunciante":"Grup Immobiliari Nàpols",
    "Viviendas":"?",
    "Returnedaddress":"Carrer d'Antoni de Capmany, 76, 08014 Barcelona, Espanya"
    }
  },
  {
    "type": "Feature",
    "geometry": {
       "type": "Point",
       "coordinates":  [ 2.161564,41.400731 ]
    },
    "properties": {
    "Promoción":"Josep Torres 14",
    "Localización":"Carrer Josep Torres 14",
    "precio":"380.000 €",
    "preciook":"380000",
    "Anunciante":"Vivendex",
    "Viviendas":"10",
    "Returnedaddress":"Carrer de Josep Torres, 14, 08012 Barcelona, Espanya"
    }
  },
  {
    "type": "Feature",
    "geometry": {
       "type": "Point",
       "coordinates":  [ 2.205604,41.404623 ]
    },
    "properties": {
    "Promoción":"Espronceda",
    "Localización":"Carrer Espronceda Poblenou",
    "precio":"330.000 €",
    "preciook":"330000",
    "Anunciante":"Inmotres",
    "Viviendas":"?",
    "Returnedaddress":"Carrer d'Espronceda, Barcelona, Espanya"
    }
  },
  {
    "type": "Feature",
    "geometry": {
       "type": "Point",
       "coordinates":  [ 2.160208,41.41622 ]
    },
    "properties": {
    "Promoción":"Jaume Puigvert 5",
    "Localización":"Carrer Jaume Puigvert 5, Can Baró",
    "precio":"260.000 €",
    "preciook":"260000",
    "Anunciante":"Oltac Patrimonial",
    "Viviendas":"6",
    "Returnedaddress":"Carrer de Jaume Puigvert, 5, 08024 Barcelona, Espanya"
    }
  },
  {
    "type": "Feature",
    "geometry": {
       "type": "Point",
       "coordinates":  [ 2.147503,41.395859 ]
    },
    "properties": {
    "Promoción":"Muntaner 270",
    "Localización":"Carrer Muntaner 270 Sant Gervasi-Galvany",
    "precio":"577.000 €",
    "preciook":"577000",
    "Anunciante":"Coldwell Banker Prestige Barcelona",
    "Viviendas":"24",
    "Returnedaddress":"Carrer de Muntaner, 270, 08021 Barcelona, Espanya"
    }
  },
  {
    "type": "Feature",
    "geometry": {
       "type": "Point",
       "coordinates":  [ 2.20599,41.398359 ]
    },
    "properties": {
    "Promoción":"Poblenou Maritim ",
    "Localización":"Carrer Perello 56 Poblenou",
    "precio":"383.385 €",
    "preciook":"383385",
    "Anunciante":"BNP Paribas Real Estate",
    "Viviendas":"?",
    "Returnedaddress":"Carrer del Perelló, 56, 08005 Barcelona, Espanya"
    }
  },
  {
    "type": "Feature",
    "geometry": {
       "type": "Point",
       "coordinates":  [ 2.134957,41.380056 ]
    },
    "properties": {
    "Promoción":"Alcolea 106",
    "Localización":"Carrer Alcolea 106-108 Sants",
    "precio":"365.000 €",
    "preciook":"365000",
    "Anunciante":"i-now",
    "Viviendas":"?",
    "Returnedaddress":"Carrer d'Alcolea, 106, 08014 Barcelona, Espanya"
    }
  },
  {
    "type": "Feature",
    "geometry": {
       "type": "Point",
       "coordinates":  [ 2.135642,41.40615 ]
    },
    "properties": {
    "Promoción":"Paseo Sant Gervasi",
    "Localización":"Passeig Sant Gervasi 86 Sant Gervasi-Bonanova",
    "precio":"526.000 €",
    "preciook":"526000",
    "Anunciante":"Grupo Castellvi",
    "Viviendas":"?",
    "Returnedaddress":"Carrer de Sant Gervasi de Cassoles, 86, 08022 Barcelona, Espanya"
    }
  },
  {
    "type": "Feature",
    "geometry": {
       "type": "Point",
       "coordinates":  [ 2.138341,41.413583 ]
    },
    "properties": {
    "Promoción":"Republica Argentina",
    "Localización":"Avinguda Republica Argentina 277 Sant Gervasi-Bonanova",
    "precio":"610.000 €",
    "preciook":"610000",
    "Anunciante":"Grupo Castellvi",
    "Viviendas":"?",
    "Returnedaddress":"Avinguda de la República Argentina, 277, 08023 Barcelona, Espanya"
    }
  },
  {
    "type": "Feature",
    "geometry": {
       "type": "Point",
       "coordinates":  [ 2.16218,41.406726 ]
    },
    "properties": {
    "Promoción":"Escorial",
    "Localización":"Carrer Sant Lluis 85, Gràcia",
    "precio":"306.000 €",
    "preciook":"306000",
    "Anunciante":"Grup Immobiliari Nàpols",
    "Viviendas":"?",
    "Returnedaddress":"Carrer de Sant Lluís, 85, 08024 Barcelona, Espanya"
    }
  },
  {
    "type": "Feature",
    "geometry": {
       "type": "Point",
       "coordinates":  [ 2.18153,41.40586 ]
    },
    "properties": {
    "Promoción":"Cartagena 202 ",
    "Localización":"Carrer Cartagena 202 Sagrada Família",
    "precio":"310.000 €",
    "preciook":"310000",
    "Anunciante":"Egnatia Capital",
    "Viviendas":"9",
    "Returnedaddress":"Carrer de Cartagena, 202, 08013 Barcelona, Espanya"
    }
  },
  {
    "type": "Feature",
    "geometry": {
       "type": "Point",
       "coordinates":  [ 2.155865,41.403214 ]
    },
    "properties": {
    "Promoción":"Edificio Torre Diagonal",
    "Localización":"Edificio La Torre 131 Taxonera",
    "precio":"745.000 €",
    "preciook":"745000",
    "Anunciante":"Banco Santander",
    "Viviendas":"?",
    "Returnedaddress":"Carrer del Torrent de l'Olla, 131, 08012 Barcelona, Espanya"
    }
  },
  {
    "type": "Feature",
    "geometry": {
       "type": "Point",
       "coordinates":  [ 2.205666,41.418971 ]
    },
    "properties": {
    "Promoción":"Gelida 7 ",
    "Localización":"Carrer Gelida La Verneda-La Pau ",
    "precio":"224.000 €",
    "preciook":"224000",
    "Anunciante":"Altamira - Viviendas de Banco",
    "Viviendas":"?",
    "Returnedaddress":"Carrer Gelida, 08020 Barcelona, Espanya"
    }
  },
  {
    "type": "Feature",
    "geometry": {
       "type": "Point",
       "coordinates":  [ 2.166553,41.374792 ]
    },
    "properties": {
    "Promoción":"Paralela 81-83",
    "Localización":"Avinguda Paralel 81",
    "precio":"334.880 €",
    "preciook":"334880",
    "Anunciante":"i-now",
    "Viviendas":"?",
    "Returnedaddress":"Av. del Paraŀlel, 81, 08004 Barcelona, Espanya"
    }
  },
  {
    "type": "Feature",
    "geometry": {
       "type": "Point",
       "coordinates":  [ 2.142584,41.35285 ]
    },
    "properties": {
    "Promoción":"Edificio Sovelles",
    "Localización":"Carrer Sovelles s/n La Marina-Port",
    "precio":"157.000 €",
    "preciook":"157000",
    "Anunciante":"Solvia Inmobiliaria",
    "Viviendas":"64",
    "Returnedaddress":"Carrer de Sovelles, 08038 Barcelona, Espanya"
    }
  },
  {
    "type": "Feature",
    "geometry": {
       "type": "Point",
       "coordinates":  [ 2.161098,41.414419 ]
    },
    "properties": {
    "Promoción":"Plaça Sanllehy",
    "Localización":"Carrer Pablo Saez De Bares 4, Can Baró",
    "precio":"320.000 €",
    "preciook":"320000",
    "Anunciante":"Inmotres",
    "Viviendas":"?",
    "Returnedaddress":"Carrer de Pablo Sáez de Barés, 4, 08024 Barcelona, Espanya"
    }
  },
  {
    "type": "Feature",
    "geometry": {
       "type": "Point",
       "coordinates":  [ 2.175258,41.381289 ]
    },
    "properties": {
    "Promoción":"Ferran 25",
    "Localización":"Carrer Ferran 25, Gòtic",
    "precio":"368.000 €",
    "preciook":"368000",
    "Anunciante":"i-now",
    "Viviendas":"?",
    "Returnedaddress":"Carrer de Ferran, 25, 08002 Barcelona, Espanya"
    }
  },
  {
    "type": "Feature",
    "geometry": {
       "type": "Point",
       "coordinates":  [ 2.187425,41.438384 ]
    },
    "properties": {
    "Promoción":"Grau-Sant Hipòlit",
    "Localización":"Carrer Grau 75 Sant Andreu",
    "precio":"320.000 €",
    "preciook":"320000",
    "Anunciante":"Grupo Palencia",
    "Viviendas":"?",
    "Returnedaddress":"Carrer de Grau, 75, 08030 Barcelona, Espanya"
    }
  },
  {
    "type": "Feature",
    "geometry": {
       "type": "Point",
       "coordinates":  [ 2.155362,41.372315 ]
    },
    "properties": {
    "Promoción":"Lleida 38",
    "Localización":"Carrer Lleida 38 Poble Sec",
    "precio":"390.000 €",
    "preciook":"390000",
    "Anunciante":"Forcadell",
    "Viviendas":"?",
    "Returnedaddress":"Carrer de Lleida, 38, 08004 Barcelona, Espanya"
    }
  },
  {
    "type": "Feature",
    "geometry": {
       "type": "Point",
       "coordinates":  [ 2.157358,41.410152 ]
    },
    "properties": {
    "Promoción":"L'illa de Gràcia",
    "Localización":"Carrer Cardener 68, Gràcia",
    "precio":"340.000 €",
    "preciook":"340000",
    "Anunciante":"Ver pisos - Serveis Immobiliaris",
    "Viviendas":"?",
    "Returnedaddress":"Carrer del Cardener, 68, 08024 Barcelona, Espanya"
    }
  },
  {
    "type": "Feature",
    "geometry": {
       "type": "Point",
       "coordinates":  [ 2.127095,41.37247 ]
    },
    "properties": {
    "Promoción":"Sants City Home",
    "Localización":"Carrer Bonsoms 3, Badal",
    "precio":"275.000 €",
    "preciook":"275000",
    "Anunciante":"Ver pisos - Serveis Immobiliaris",
    "Viviendas":"?",
    "Returnedaddress":"Carrer de Bonsoms, 3, 08028 Barcelona, Espanya"
    }
  },
  {
    "type": "Feature",
    "geometry": {
       "type": "Point",
       "coordinates":  [ 2.176387,41.421418 ]
    },
    "properties": {
    "Promoción":"Sagi 36",
    "Localización":"Carrer Anna M Martinez Sagi Guinardó",
    "precio":"420.000 €",
    "preciook":"420000",
    "Anunciante":"Oltac Patrimonial",
    "Viviendas":"5",
    "Returnedaddress":"Carrer Anna Maria Martinez Sagi, 39, 08041 Barcelona, Espanya"
    }
  },
  {
    "type": "Feature",
    "geometry": {
       "type": "Point",
       "coordinates":  [ 2.17493,41.382512 ]
    },
    "properties": {
    "Promoción":"Banys Nous",
    "Localización":"Carrer Banys Nous 14 Gòtic",
    "precio":"385.000 €",
    "preciook":"385000",
    "Anunciante":"Barcelona Sotheby's International Realty",
    "Viviendas":"?",
    "Returnedaddress":"Carrer dels Banys Nous, 14, 08002 Barcelona, Espanya"
    }
  },
  {
    "type": "Feature",
    "geometry": {
       "type": "Point",
       "coordinates":  [ 2.153115,41.42425 ]
    },
    "properties": {
    "Promoción":"Promoción Obra Nueva Bernat Bransi",
    "Localización":"Carrer Bernat Bransi 58 Carmel",
    "precio":"198.000 €",
    "preciook":"198000",
    "Anunciante":"i-now",
    "Viviendas":"14",
    "Returnedaddress":"Carrer de Bernat Bransi, 58, 08032 Barcelona, Espanya"
    }
  },
  {
    "type": "Feature",
    "geometry": {
       "type": "Point",
       "coordinates":  [ 2.202117,41.406825 ]
    },
    "properties": {
    "Promoción":"Diagonal 119 Homes",
    "Localización":"Avinguda Diagonal 119 Poblenou",
    "precio":"425.000 €",
    "preciook":"425000",
    "Anunciante":"Neinor Homes",
    "Viviendas":"?",
    "Returnedaddress":"Avinguda Diagonal, 119, 08005 Barcelona, Espanya"
    }
  },
  {
    "type": "Feature",
    "geometry": {
       "type": "Point",
       "coordinates":  [ 2.20599,41.398359 ]
    },
    "properties": {
    "Promoción":"Poblenou Maritim ",
    "Localización":"Carrer Perello 56 Poblenou",
    "precio":"383.385 €",
    "preciook":"383385",
    "Anunciante":"Farré Catalunya",
    "Viviendas":"?",
    "Returnedaddress":"Carrer del Perelló, 56, 08005 Barcelona, Espanya"
    }
  },
  {
    "type": "Feature",
    "geometry": {
       "type": "Point",
       "coordinates":  [ 2.172647,41.405727 ]
    },
    "properties": {
    "Promoción":"Marina 285",
    "Localización":"Carrer Marina 285 Sagrada Família",
    "precio":"410.300 €",
    "preciook":"410300",
    "Anunciante":"CASAATICO",
    "Viviendas":"?",
    "Returnedaddress":"Carrer de la Marina, 285, 08025 Barcelona, Espanya"
    }
  },
  {
    "type": "Feature",
    "geometry": {
       "type": "Point",
       "coordinates":  [ 2.201535,41.397737 ]
    },
    "properties": {
    "Promoción":"Poblenou - Casas adosadas de obra nueva",
    "Localización":"Poblenou ",
    "precio":"920.000 €",
    "preciook":"920000",
    "Anunciante":"Engel & Völkers",
    "Viviendas":"?",
    "Returnedaddress":"El Poblenou, Barcelona, Espanya"
    }
  },
  {
    "type": "Feature",
    "geometry": {
       "type": "Point",
       "coordinates":  [ 2.158531,41.377266 ]
    },
    "properties": {
    "Promoción":"Sant Pau",
    "Localización":"Sant Antoni",
    "precio":"425.000 €",
    "preciook":"425000",
    "Anunciante":"Casa SC",
    "Viviendas":"?",
    "Returnedaddress":"Sant Antoni, Barcelona, Espanya"
    }
  },
  {
    "type": "Feature",
    "geometry": {
       "type": "Point",
       "coordinates":  [ 2.1670202,41.4222326 ]
    },
    "properties": {
    "Promoción":"Sancho d'Avila Poblenou",
    "Localización":"Poblenou ",
    "precio":"372.653 €",
    "preciook":"372653",
    "Anunciante":"Casa SC",
    "Viviendas":"?",
    "Returnedaddress":"Rambla Poblenou/Sancho de Ávila , Barcelona, Espanya"
    }
  },
  {
    "type": "Feature",
    "geometry": {
       "type": "Point",
       "coordinates":  [ 2.163486,41.379923 ]
    },
    "properties": {
    "Promoción":"Áticos de Ronda Sant Antoni",
    "Localización":"Ronda de Sant Antoni 26",
    "precio":"185.000 €",
    "preciook":"185000",
    "Anunciante":"i-now",
    "Viviendas":"?",
    "Returnedaddress":"Ronda de Sant Antoni, 26, 08001 Barcelona, Espanya"
    }
  },
  {
    "type": "Feature",
    "geometry": {
       "type": "Point",
       "coordinates":  [ 2.184248,41.433419 ]
    },
    "properties": {
    "Promoción":"Concepcion Arenal ",
    "Localización":"Concepcion Arenal 296-302 Sant Andreu",
    "precio":"226.462 €",
    "preciook":"226462",
    "Anunciante":"Nuñez y Navarro",
    "Viviendas":"?",
    "Returnedaddress":"Carrer de Concepción Arenal, 296, 08030 Barcelona, Espanya"
    }
  },
  {
    "type": "Feature",
    "geometry": {
       "type": "Point",
       "coordinates":  [ 2.171556,41.404335 ]
    },
    "properties": {
    "Promoción":"Vivienda en Barcelona (Alquiler)",
    "Localización":"Carrer Rosselló 415, Gràcia",
    "precio":"1.070 €",
    "preciook":"1070",
    "Anunciante":"Servihabitat Serveis Immobiliaris",
    "Viviendas":"?",
    "Returnedaddress":"Carrer del Rosselló, 415, 08025 Barcelona, Espanya"
    }
  },
  {
    "type": "Feature",
    "geometry": {
       "type": "Point",
       "coordinates":  [ 2.1591786,41.3850071 ]
    },
    "properties": {
    "Promoción":"Muntaner 29",
    "Localización":"Carrer Muntaner 29 Zona Esquerra Baixa de l'Eixample",
    "precio":"505.000 €",
    "preciook":"505000",
    "Anunciante":"Don Piso",
    "Viviendas":"?",
    "Returnedaddress":"Carrer de Muntaner, 29, 08011 Barcelona"
    }
  },
  {
    "type": "Feature",
    "geometry": {
       "type": "Point",
       "coordinates":  [ 2.15956,41.421946 ]
    },
    "properties": {
    "Promoción":"Font d'en Fargas",
    "Localización":"Carrer Montserrat de Casanovas 204",
    "precio":"299.000 €",
    "preciook":"299000",
    "Anunciante":"Eurofincas",
    "Viviendas":"10",
    "Returnedaddress":"Carrer de Montserrat de Casanovas, 204, 08032 Barcelona, Espanya"
    }
  },
  {
    "type": "Feature",
    "geometry": {
       "type": "Point",
       "coordinates":  [ 2.186588,41.410448 ]
    },
    "properties": {
    "Promoción":"Meridiana",
    "Localización":"Avinguda Meridiana 141 Camp de l'Arpa",
    "precio":"351.500 €",
    "preciook":"351500",
    "Anunciante":"CASAATICO",
    "Viviendas":"?",
    "Returnedaddress":"Avinguda Meridiana, 141, 08026 Barcelona, Espanya"
    }
  },
  {
    "type": "Feature",
    "geometry": {
       "type": "Point",
       "coordinates":  [ 2.1591786,41.3850071 ]
    },
    "properties": {
    "Promoción":"Muntaner 29",
    "Localización":"Carrer Muntaner 29 Zona Esquerra Baixa de l'Eixample",
    "precio":"505.000 €",
    "preciook":"505000",
    "Anunciante":"Arbal Immobles",
    "Viviendas":"16",
    "Returnedaddress":"Carrer de Muntaner, 29, 08011 Barcelona"
    }
  },
  {
    "type": "Feature",
    "geometry": {
       "type": "Point",
       "coordinates":  [ 2.178353,41.399771 ]
    },
    "properties": {
    "Promoción":"Pisos Rehabilitados a estrenar",
    "Localización":"Carrer Sardenya 252 Fort Pienc",
    "precio":"313.000 €",
    "preciook":"313000",
    "Anunciante":"Nuptar Trade",
    "Viviendas":"?",
    "Returnedaddress":"Carrer de Sardenya, 252, 08013 Barcelona, Espanya"
    }
  },
  {
    "type": "Feature",
    "geometry": {
       "type": "Point",
       "coordinates":  [ 2.187055,41.430264 ]
    },
    "properties": {
    "Promoción":"La Rambla 52",
    "Localización":"Rambla Fabra i Puig 52",
    "precio":"331.250 €",
    "preciook":"331250",
    "Anunciante":"Ver pisos - Serveis Immobiliaris",
    "Viviendas":"8",
    "Returnedaddress":"Rambla de Fabra i Puig, 52, 08030 Barcelona, Espanya"
    }
  },
  {
    "type": "Feature",
    "geometry": {
       "type": "Point",
       "coordinates":  [ 2.201125,41.402541 ]
    },
    "properties": {
    "Promoción":"Maria Aguilo",
    "Localización":"Carrer Maria Aguilo 50 Poblenou",
    "precio":"445.000 €",
    "preciook":"445000",
    "Anunciante":"City Espresso",
    "Viviendas":"?",
    "Returnedaddress":"Carrer de Marià Aguiló, 50, 08005 Barcelona, Espanya"
    }
  },
  {
    "type": "Feature",
    "geometry": {
       "type": "Point",
       "coordinates":  [ 2.151082,41.40288 ]
    },
    "properties": {
    "Promoción":"Promoción ELIX Aulèstia i Pijoan 17",
    "Localización":"Carrer Aulestia i Pijoan 17",
    "precio":"645.000 €",
    "preciook":"645000",
    "Anunciante":"Elix",
    "Viviendas":"?",
    "Returnedaddress":"Carrer d'Aulèstia i Pijoan, 17, 08012 Barcelona, Espanya"
    }
  },
  {
    "type": "Feature",
    "geometry": {
       "type": "Point",
       "coordinates":  [ 2.170895,41.412015 ]
    },
    "properties": {
    "Promoción":"Edificio Castillejo ",
    "Localización":"Carrer Castillejos 391 Baix Guinardó",
    "precio":"260.000 €",
    "preciook":"260000",
    "Anunciante":"Don Piso",
    "Viviendas":"?",
    "Returnedaddress":"Carrer de los Castillejos, 391, 08025 Barcelona, Espanya"
    }
  },
  {
    "type": "Feature",
    "geometry": {
       "type": "Point",
       "coordinates":  [ 2.117955,41.377084 ]
    },
    "properties": {
    "Promoción":"PROMO El Xalet de 1928",
    "Localización":"Passatge Pere Rodriguez 24",
    "precio":"304.000 €",
    "preciook":"304000",
    "Anunciante":"Ver pisos - Serveis Immobiliaris",
    "Viviendas":"6",
    "Returnedaddress":"Passatge Pere Rodríguez, 24, 08028 Barcelona, Espanya"
    }
  },
  {
    "type": "Feature",
    "geometry": {
       "type": "Point",
       "coordinates":  [ 2.160203,41.381618 ]
    },
    "properties": {
    "Promoción":"Vivienda en Barcelona",
    "Localización":"Carrer Sepulveda 135",
    "precio":"350.000 €",
    "preciook":"350000",
    "Anunciante":"Servihabitat Serveis Immobiliaris",
    "Viviendas":"?",
    "Returnedaddress":"Carrer de Sepúlveda, 135, 08011 Barcelona, Espanya"
    }
  },
  {
    "type": "Feature",
    "geometry": {
       "type": "Point",
       "coordinates":  [ 2.155313,41.4036 ]
    },
    "properties": {
    "Promoción":"Residencial Vila de Gràcia",
    "Localización":"Vila de Gràcia",
    "precio":"360.000 €",
    "preciook":"360000",
    "Anunciante":"Guimar Consulting",
    "Viviendas":"8",
    "Returnedaddress":"Vila de Gràcia, Barcelona, Espanya"
    }
  },
  {
    "type": "Feature",
    "geometry": {
       "type": "Point",
       "coordinates":  [ 2.172519,41.424322 ]
    },
    "properties": {
    "Promoción":"Elix Next Amilcar 108",
    "Localización":"Carrer Amilcar 108, Guinardó",
    "precio":"365.000 €",
    "preciook":"365000",
    "Anunciante":"Elix",
    "Viviendas":"2",
    "Returnedaddress":"Carrer d'Amílcar, 108, 08032 Barcelona, Espanya"
    }
  },
  {
    "type": "Feature",
    "geometry": {
       "type": "Point",
       "coordinates":  [ 2.13166,41.38812 ]
    },
    "properties": {
    "Promoción":"Zona l'Illa Diagonal",
    "Localización":"Carrer Can Segalar 6 Les Corts",
    "precio":"920.000 €",
    "preciook":"920000",
    "Anunciante":"Guinort Prunera",
    "Viviendas":"19",
    "Returnedaddress":"Carrer Can Segala, 6, 08014 Barcelona, Espanya"
    }
  },
  {
    "type": "Feature",
    "geometry": {
       "type": "Point",
       "coordinates":  [ 2.1854659,41.4092291 ]
    },
    "properties": {
    "Promoción":"Residencial Aragó",
    "Localización":"Carrer Aragó El Clot",
    "precio":"492.000 €",
    "preciook":"492000",
    "Anunciante":"Guimar Consulting",
    "Viviendas":"14",
    "Returnedaddress":"Carrer d'Aragó, Barcelona, Espanya"
    }
  },
  {
    "type": "Feature",
    "geometry": {
       "type": "Point",
       "coordinates":  [ 2.154428,41.40626 ]
    },
    "properties": {
    "Promoción":"Promoción ELIX NEXT Verdi 106",
    "Localización":"Carrer Verdi 106",
    "precio":"540.000 €",
    "preciook":"540000",
    "Anunciante":"Elix",
    "Viviendas":"4",
    "Returnedaddress":"Carrer de Verdi, 106, 08012 Barcelona, Espanya"
    }
  },
  {
    "type": "Feature",
    "geometry": {
       "type": "Point",
       "coordinates":  [ 2.1823411,41.422234 ]
    },
    "properties": {
    "Promoción":"Olesa",
    "Localización":"Olesa",
    "precio":"265.452 €",
    "preciook":"265452",
    "Anunciante":"AXE INVERSORES",
    "Viviendas":"17",
    "Returnedaddress":"Carrer d'Olesa, 08027 Barcelona"
    }
  },
  {
    "type": "Feature",
    "geometry": {
       "type": "Point",
       "coordinates":  [ 2.190894,41.438485 ]
    },
    "properties": {
    "Promoción":"Edificio Torres i Bages 49",
    "Localización":"Passatge Torras i Bages 49, Sant Andreu",
    "precio":"340.000 €",
    "preciook":"340000",
    "Anunciante":"Nova Cuatro",
    "Viviendas":"?",
    "Returnedaddress":"Passeig de Torras i Bages, 49, 08030 Barcelona, Espanya"
    }
  },
  {
    "type": "Feature",
    "geometry": {
       "type": "Point",
       "coordinates":  [ 2.138484,41.384141 ]
    },
    "properties": {
    "Promoción":"Numancia_ID17705",
    "Localización":"Carrer Caballero 72, Les Corts",
    "precio":"328.800 €",
    "preciook":"328800",
    "Anunciante":"Altamira - Viviendas de Banco",
    "Viviendas":"?",
    "Returnedaddress":"Carrer de Caballero, 72, 08029 Barcelona, Espanya"
    }
  },
  {
    "type": "Feature",
    "geometry": {
       "type": "Point",
       "coordinates":  [ 2.1331861,41.3726353 ]
    },
    "properties": {
    "Promoción":"La Bordeta Barcelona",
    "Localización":"Junto Jocs Florals, La Bordeta",
    "precio":"299.000 €",
    "preciook":"299000",
    "Anunciante":"Finques Diana",
    "Viviendas":"?",
    "Returnedaddress":"Carrer dels Jocs Florals, 99-81, 08014 Barcelona"
    }
  },
  {
    "type": "Feature",
    "geometry": {
       "type": "Point",
       "coordinates":  [ 2.177901,41.415443 ]
    },
    "properties": {
    "Promoción":"America",
    "Localización":"Carrer America 19, Guinardó",
    "precio":"385.000 €",
    "preciook":"385000",
    "Anunciante":"Landnetworks",
    "Viviendas":"?",
    "Returnedaddress":"Carrer d'Amèrica, 19, 08041 Barcelona, Espanya"
    }
  },
  {
    "type": "Feature",
    "geometry": {
       "type": "Point",
       "coordinates":  [ 2.172878,41.385736 ]
    },
    "properties": {
    "Promoción":"2929 (Portal del Ángel)",
    "Localización":"Portal del Angel",
    "precio":"526.800 €",
    "preciook":"526800",
    "Anunciante":"Mateo Lobato",
    "Viviendas":"?",
    "Returnedaddress":"Avinguda del Portal de l'Àngel, 08002 Barcelona, Espanya"
    }
  },
  {
    "type": "Feature",
    "geometry": {
       "type": "Point",
       "coordinates":  [ 2.1344508,41.3759829 ]
    },
    "properties": {
    "Promoción":"Plaça de Sants ",
    "Localización":"Sants",
    "precio":"435.000 €",
    "preciook":"435000",
    "Anunciante":"Finques Diana",
    "Viviendas":"?",
    "Returnedaddress":"Plaça de Sants, 9, 08028 Barcelona"
    }
  },
  {
    "type": "Feature",
    "geometry": {
       "type": "Point",
       "coordinates":  [ 2.160848,41.407771 ]
    },
    "properties": {
    "Promoción":"Gracia C/Escorial",
    "Localización":"Carrer Escorial  Camp d'en Grassot-Gràcia",
    "precio":"306.000 €",
    "preciook":"306000",
    "Anunciante":"BCN Flats",
    "Viviendas":"?",
    "Returnedaddress":"Carrer de l'Escorial, 08024 Barcelona, Espanya"
    }
  },
  {
    "type": "Feature",
    "geometry": {
       "type": "Point",
       "coordinates":  [ 2.175728,41.404484 ]
    },
    "properties": {
    "Promoción":"Sagrada Família Barcelona",
    "Localización":"Sagrada Família",
    "precio":"333.300 €",
    "preciook":"333300",
    "Anunciante":"Casa Barcino Gestió Inmobiliària",
    "Viviendas":"?",
    "Returnedaddress":"La Sagrada Familia, Barcelona, Espanya"
    }
  },
  {
    "type": "Feature",
    "geometry": {
       "type": "Point",
       "coordinates":  [ 2.171548,41.426614 ]
    },
    "properties": {
    "Promoción":"Maragall 287",
    "Localización":"Passeig Maragall 287, Font d'en Fargas",
    "precio":"a consultar",
    "preciook":"a consultar",
    "Anunciante":"BNP Paribas Real Estate",
    "Viviendas":"6",
    "Returnedaddress":"Passeig de Maragall, 287, 08032 Barcelona, Espanya"
    }
  },
  {
    "type": "Feature",
    "geometry": {
       "type": "Point",
       "coordinates":  [ 2.160787,41.42289 ]
    },
    "properties": {
    "Promoción":"Promoción Santa Otília",
    "Localización":"Carrer Santa Otilia 5",
    "precio":"a consultar",
    "preciook":"a consultar",
    "Anunciante":"Gestió i Garantia",
    "Viviendas":"?",
    "Returnedaddress":"Carrer de Santa Otília, 5, 08032 Barcelona, Espanya"
    }
  },
  {
    "type": "Feature",
    "geometry": {
       "type": "Point",
       "coordinates":  [ 2.169462,41.411438 ]
    },
    "properties": {
    "Promoción":"Padilla 377",
    "Localización":"Carrer Padilla 377 Guinardó",
    "precio":"a consultar",
    "preciook":"a consultar",
    "Anunciante":"Cumisa",
    "Viviendas":"10",
    "Returnedaddress":"Carrer de Padilla, 377, 08025 Barcelona, Espanya"
    }
  },
  {
    "type": "Feature",
    "geometry": {
       "type": "Point",
       "coordinates":  [ 2.174944,41.386691 ]
    },
    "properties": {
    "Promoción":"Via Laietana 45",
    "Localización":"Via Laietana 45",
    "precio":"a consultar",
    "preciook":"a consultar",
    "Anunciante":"Ollé Bertrán Serveis Immobiliaris",
    "Viviendas":"?",
    "Returnedaddress":"Via Laietana, 45, 08003 Barcelona, Espanya"
    }
  },
  {
    "type": "Feature",
    "geometry": {
       "type": "Point",
       "coordinates":  [ 2.187938,41.429669 ]
    },
    "properties": {
    "Promoción":"Odeon Residencial",
    "Localización":"Rambla Fabra i Puig 25, Sant Andreu",
    "precio":"a consultar",
    "preciook":"a consultar",
    "Anunciante":"Stoneweg Living",
    "Viviendas":"32",
    "Returnedaddress":"Rambla de Fabra i Puig, 25, 08030 Barcelona, Espanya"
    }
  },
  {
    "type": "Feature",
    "geometry": {
       "type": "Point",
       "coordinates":  [ 2.137912,41.385186 ]
    },
    "properties": {
    "Promoción":"Marques de Sentmenat",
    "Localización":"Carrer Marques de Sentmenat, Les Corts",
    "precio":"a consultar",
    "preciook":"a consultar",
    "Anunciante":"Stoneweg Living",
    "Viviendas":"12",
    "Returnedaddress":"Carrer del Marquès de Sentmenat, Barcelona, Espanya"
    }
  },
  {
    "type": "Feature",
    "geometry": {
       "type": "Point",
       "coordinates":  [ 2.165328,41.386873 ]
    },
    "properties": {
    "Promoción":"Gran Via 604",
    "Localización":"Gran Via de les Corts Catalanes 604, Eixample",
    "precio":"475.000 €",
    "preciook":"475000",
    "Anunciante":"Lucas Fox",
    "Viviendas":"?",
    "Returnedaddress":"Gran Via de les Corts Catalanes, 604, 08007 Barcelona, Espanya"
    }
  },
  {
    "type": "Feature",
    "geometry": {
       "type": "Point",
       "coordinates":  [ 2.145645,41.396902 ]
    },
    "properties": {
    "Promoción":"Vila Galvany",
    "Localización":"Carrer Muntaner 307, Sant Gervasi-Galvany",
    "precio":"1.364.000 €",
    "preciook":"1364000",
    "Anunciante":"Lucas Fox",
    "Viviendas":"29",
    "Returnedaddress":"Carrer de Muntaner, 307, 08021 Barcelona, Espanya"
    }
  },
  {
    "type": "Feature",
    "geometry": {
       "type": "Point",
       "coordinates":  [ 2.193826,41.432073 ]
    },
    "properties": {
    "Promoción":"Castro de Viladonga",
    "Localización":"Carrer del Segre 70, Sant Andreu",
    "precio":"370.000 €",
    "preciook":"370000",
    "Anunciante":"Castro Real Estate",
    "Viviendas":"?",
    "Returnedaddress":"Carrer del Segre, 70, 08030 Barcelona, Espanya"
    }
  },
  {
    "type": "Feature",
    "geometry": {
       "type": "Point",
       "coordinates":  [ 2.117955,41.377084 ]
    },
    "properties": {
    "Promoción":"Passatge Pere Rodriguez",
    "Localización":"Paseo Pere Rodriguez 24, Les Corts",
    "precio":"304.000 €",
    "preciook":"304000",
    "Anunciante":"Ver pisos - Serveis Immobiliaris",
    "Viviendas":"6",
    "Returnedaddress":"Passatge Pere Rodríguez, 24, 08028 Barcelona, Espanya"
    }
  },
  {
    "type": "Feature",
    "geometry": {
       "type": "Point",
       "coordinates":  [ 2.2155765,41.4132316 ]
    },
    "properties": {
    "Promoción":"Residencial Forum-Llul",
    "Localización":"Sant Martí/Diagonal Mar i el Front Marítim del Poblenou",
    "precio":"292.000 €",
    "preciook":"292000",
    "Anunciante":"Arnal",
    "Viviendas":"?",
    "Returnedaddress":"Carrer de Llull, 465, 08019 Barcelona"
    }
  },
  {
    "type": "Feature",
    "geometry": {
       "type": "Point",
       "coordinates":  [ 2.143169,41.371534 ]
    },
    "properties": {
    "Promoción":"Gran Via - Edifici Abanto",
    "Localización":"Carrer Sant Pere d'Abanto 13-15, Sants-Montjuic",
    "precio":"298.000 €",
    "preciook":"298000",
    "Anunciante":"La Llave de Oro",
    "Viviendas":"?",
    "Returnedaddress":"Carrer de Sant Pere d'Abanto, 13, 08014 Barcelona, Espanya"
    }
  },
  {
    "type": "Feature",
    "geometry": {
       "type": "Point",
       "coordinates":  [ 2.162031,41.423276 ]
    },
    "properties": {
    "Promoción":"Font de la Mulassa",
    "Localización":"Passeig de la Font de la Mulassa 35, Horta ",
    "precio":"505.500 €",
    "preciook":"505500",
    "Anunciante":"Gestió i Garantia",
    "Viviendas":"?",
    "Returnedaddress":"Passeig de la Font de la Mulassa, 35, 08032 Barcelona, Espanya"
    }
  },
  {
    "type": "Feature",
    "geometry": {
       "type": "Point",
       "coordinates":  [ 2.16585,41.402548 ]
    },
    "properties": {
    "Promoción":"Passeig Sant Joan 164",
    "Localización":"Passeig Sant Joan 164, El Camp d'en Grassot i Gràcia Nova",
    "precio":"629.000 €",
    "preciook":"629000",
    "Anunciante":"Coldwell Banker Prestige Barcelona",
    "Viviendas":"12",
    "Returnedaddress":"Passeig de Sant Joan, 164, 08037 Barcelona, Espanya"
    }
  },
  {
    "type": "Feature",
    "geometry": {
       "type": "Point",
       "coordinates":  [ 2.156071,41.39108 ]
    },
    "properties": {
    "Promoción":"Aribau ",
    "Localización":"Carrer Aribau 120, Eixample ",
    "precio":"655.000 €",
    "preciook":"655000",
    "Anunciante":"Living",
    "Viviendas":"?",
    "Returnedaddress":"Carrer d'Aribau, 120, 08036 Barcelona, Espanya"
    }
  },
  {
    "type": "Feature",
    "geometry": {
       "type": "Point",
       "coordinates":  [ 2.142542,41.389062 ]
    },
    "properties": {
    "Promoción":"Rita Bonnat ",
    "Localización":"Carrer Rita Bonnat 5, Les Corts",
    "precio":"806.000 €",
    "preciook":"806000",
    "Anunciante":"Tranio International",
    "Viviendas":"?",
    "Returnedaddress":"Carrer de Rita Bonnat, 5, 08029 Barcelona, Espanya"
    }
  },
  {
    "type": "Feature",
    "geometry": {
       "type": "Point",
       "coordinates":  [ 2.13166,41.38812 ]
    },
    "properties": {
    "Promoción":"La Llave de Oro l'Illa",
    "Localización":"Carrer Can Segalar 6, Les Corts",
    "precio":"928.000 €",
    "preciook":"928000",
    "Anunciante":"La Llave de Oro",
    "Viviendas":"?",
    "Returnedaddress":"Carrer Can Segala, 6, 08014 Barcelona, Espanya"
    }
  },
  {
    "type": "Feature",
    "geometry": {
       "type": "Point",
       "coordinates":  [ 2.139821,41.408049 ]
    },
    "properties": {
    "Promoción":"Residencial Alto Standing en Putxet i Farró",
    "Localización":"Carrer Bertran 106, Sarrià - Sant Gervasi ",
    "precio":"a consultar",
    "preciook":"a consultar",
    "Anunciante":"Engel & Völkers",
    "Viviendas":"10",
    "Returnedaddress":"Carrer de Bertran, 106, 08023 Barcelona, Espanya"
    }
  },
  {
    "type": "Feature",
    "geometry": {
       "type": "Point",
       "coordinates":  [ 2.13166,41.38812 ]
    },
    "properties": {
    "Promoción":"Zona l'Illa Diagonal",
    "Localización":"Carrer Can Segalar 6 Les Corts",
    "precio":"958.000 €",
    "preciook":"958000",
    "Anunciante":"Guinort Prunera",
    "Viviendas":"?",
    "Returnedaddress":"Carrer Can Segala, 6, 08014 Barcelona, Espanya"
    }
  },
  {
    "type": "Feature",
    "geometry": {
       "type": "Point",
       "coordinates":  [ 2.161916,41.429107 ]
    },
    "properties": {
    "Promoción":"Dante Alighieri 6",
    "Localización":"Carrer Dante Alighieri 6, Horta",
    "precio":"400.000 €",
    "preciook":"400000",
    "Anunciante":"Roe Real Estate",
    "Viviendas":"?",
    "Returnedaddress":"Carrer de Dante Alighieri, 6, 08032 Barcelona, Espanya"
    }
  },
  {
    "type": "Feature",
    "geometry": {
       "type": "Point",
       "coordinates":  [ 2.179598,41.389003 ]
    },
    "properties": {
    "Promoción":"Basses de Sant Pere",
    "Localización":"Carrer Basses de Sant Pere 9, Ciutat Vella ",
    "precio":"875.000 €",
    "preciook":"875000",
    "Anunciante":"Aubert Aubert associes",
    "Viviendas":"12",
    "Returnedaddress":"Carrer de les Basses de Sant Pere, 9, 08003 Barcelona, Espanya"
    }
  }
]
}